{"stations":[{"name":"PARIS 1er Les Halles","lat":48.86212,"lon":2.34462,"traffic":false},{"name":"PARIS Centre","lat":48.859,"lon":2.351,"traffic":false},{"name":"Boulevard Soult","lat":48.83796,"lon":2.40806,"traffic":true},{"name":"Place de l'Opéra","lat":48.87027,"lon":2.3325,"traffic":true},{"name":"RN20 - MONTLHERY","lat":48.64093,"lon":2.26872,"traffic":true},{"name":"Bld peripherique Est","lat":48.83861,"lon":2.41278,"traffic":true},{"name":"ARGENTEUIL","lat":48.95139,"lon":2.22361,"traffic":false},{"name":"AUBERVILLIERS","lat":48.9039,"lon":2.3847,"traffic":false},{"name":"Boulevard Périphérique Auteuil","lat":48.84789,"lon":2.25336,"traffic":true},{"name":"Auto A1 -Saint-Denis","lat":48.92528,"lon":2.35667,"traffic":true},{"name":"Place Victor Basch","lat":48.82778,"lon":2.3275,"traffic":true},{"name":"BOBIGNY","lat":48.9025,"lon":2.4525,"traffic":false},{"name":"Rue Bonaparte","lat":48.85639,"lon":2.33528,"traffic":true},{"name":"Quai des Celestins","lat":48.85278,"lon":2.36056,"traffic":true},{"name":"CHAMPIGNY-SUR-MARNE","lat":48.81639,"lon":2.5175,"traffic":false},{"name":"LA DEFENSE","lat":48.89139,"lon":2.24056,"traffic":false},{"name":"Av Champs Elysees","lat":48.86877,"lon":2.31123,"traffic":true},{"name":"EVRY","lat":48.62722,"lon":2.42917,"traffic":false},{"name":"GENNEVILLIERS","lat":48.93032,"lon":2.29435,"traffic":false},{"name":"GONESSE","lat":48.99083,"lon":2.44472,"traffic":false},{"name":"LOGNES","lat":48.84028,"lon":2.63528,"traffic":false},{"name":"MANTES-LA-JOLIE","lat":48.9964,"lon":1.7033,"traffic":false},{"name":"MELUN","lat":48.54139,"lon":2.66139,"traffic":false},{"name":"MONTGERON","lat":48.7067,"lon":2.4572,"traffic":false},{"name":"NEUILLY-SUR-SEINE","lat":48.88139,"lon":2.27806,"traffic":false},{"name":"PARIS 7eme","lat":48.8572,"lon":2.2933,"traffic":false},{"name":"PARIS 12eme","lat":48.83722,"lon":2.3939,"traffic":false},{"name":"PARIS 13eme","lat":48.82861,"lon":2.36028,"traffic":false},{"name":"PARIS 18eme","lat":48.89167,"lon":2.34667,"traffic":false},{"name":"Zone Rurale SE","lat":48.3547,"lon":2.6453,"traffic":false},{"name":"Zone Rurale SO","lat":48.58194,"lon":1.88333,"traffic":false},{"name":"SAINT-DENIS","lat":48.93722,"lon":2.36167,"traffic":false},{"name":"TREMBLAY-EN-FRANCE","lat":48.95555,"lon":2.57528,"traffic":false},{"name":"Boulevard Haussmann","lat":48.87333,"lon":2.33028,"traffic":true},{"name":"VERSAILLES","lat":48.79917,"lon":2.13056,"traffic":false},{"name":"VILLEMOMBLE","lat":48.88195,"lon":2.50722,"traffic":false},{"name":"VITRY-SUR-SEINE","lat":48.7759,"lon":2.37579,"traffic":false},{"name":"RN2-PANTIN","lat":48.90222,"lon":2.39083,"traffic":true},{"name":"RN6-MELUN","lat":48.52806,"lon":2.65361,"traffic":true},{"name":"PARIS Stade Lenglen","lat":48.83039,"lon":2.26989,"traffic":false},{"name":"Zone Rurale Nord","lat":49.10028,"lon":2.34389,"traffic":false},{"name":"RAMBOUILLET","lat":48.63373,"lon":1.83053,"traffic":false},{"name":"Zone rurale Sud","lat":48.36417,"lon":2.23694,"traffic":false},{"name":"RD934 Coulommiers","lat":48.8059,"lon":3.08416,"traffic":false}],"pollutants":{"no2":{"years":{"2019":{"hours":8760,"start":1546304400000},"2020":{"hours":8784,"start":1577840400000},"2021":{"hours":8760,"start":1609462800000},"2022":{"hours":8760,"start":1640998800000},"2023":{"hours":8760,"start":1672534800000},"2024":{"hours":8784,"start":1704070800000},"2025":{"hours":8760,"start":1735693200000}}},"pm25":{"years":{"2019":{"hours":8760,"start":1546304400000},"2020":{"hours":8784,"start":1577840400000},"2021":{"hours":8760,"start":1609462800000},"2022":{"hours":8760,"start":1640998800000},"2023":{"hours":8760,"start":1672534800000},"2024":{"hours":8784,"start":1704070800000},"2025":{"hours":8760,"start":1735693200000}}}}}